{"001":{"id":"001","code":"UC","name":"University College","address":{"street":"15 King's College Circle","city":"Toronto","province":"ON","country":"Canada","postal":"M5S 3H7"},"lat":43.66319655917286,"lng":-79.395819910554},"002":{"id":"002","code":"HH","name":"Hart House","address":{"street":"7 Hart House Circle","city":"Toronto","province":"ON","country":"Canada","postal":"M5S 3H3"},"lat":43.663700559989046,"lng":-79.3945183686304},"003":{"id":"003","code":"SM","name":"Gerstein Science Information Centre in the Sigmund Samuel Library Bldg","address":{"street":"7 and 9 King's College Circle","city":"Toronto","province":"ON","country":"Canada","postal":"M5S 3K1"},"lat":43.66220455260483,"lng":-79.393846475272},"004":{"id":"004","code":"MR","name":"McMurrich Building","address":{"street":"12 Queen's Park Crescent W","city":"Toronto","province":"ON","country":"Canada","postal":"M5S 1S8"},"lat":43.66110823306933,"lng":-79.392874174504},"005":{"id":"005","code":"MS","name":"Medical Sciences Building","address":{"street":"1 King's College Circle","city":"Toronto","province":"ON","country":"Canada","postal":"M5S 1A8"},"lat":43.660739554480855,"lng":-79.3937338224935},"006":{"id":"006","code":"RL","name":"John P. Robarts Library Building","address":{"street":"130 St. George Street","city":"Toronto","province":"ON","country":"Canada","postal":"M5S 1A5"},"lat":43.664451945321126,"lng":-79.3994502804565},"006A":{"id":"006A","code":"BL","name":"Claude T. Bissell Building","address":{"street":"140 St. George Street","city":"Toronto","province":"ON","country":"Canada","postal":"M5S 3G6"},"lat":43.66502918130166,"lng":-79.3992973945427},"006B":{"id":"006B","code":"RB","name":"Thomas Fisher Rare Book Library Building","address":{"street":"120 St. George Street","city":"Toronto","province":"ON","country":"Canada","postal":"M5S 1A5"},"lat":43.66405418284699,"lng":-79.398935296325},"007":{"id":"007","code":"MB","name":"Lassonde Mining Building","address":{"street":"170 College Street","city":"Toronto","province":"ON","country":"Canada","postal":"M5S 3E3"},"lat":43.659502525205575,"lng":-79.3933891586351},"008":{"id":"008","code":"WB","name":"Wallberg Building","address":{"street":"184-200 College Street","city":"Toronto","province":"ON","country":"Canada","postal":"M56 3E5"},"lat":43.65912364957695,"lng":-79.3951909325409},"008A":{"id":"008A","code":"PT","name":"D.L. Pratt Building","address":{"street":"6 King's College Road","city":"Toronto","province":"ON","country":"Canada","postal":"M5S 3H5"},"lat":43.65963205070242,"lng":-79.3946933827686},"009":{"id":"009","code":"SF","name":"Sandford Fleming Building","address":{"street":"10 King's College Road","city":"Toronto","province":"ON","country":"Canada","postal":"M5S 3G4"},"lat":43.66012007293862,"lng":-79.3951037607479},"010":{"id":"010","code":"SI","name":"Simcoe Hall","address":{"street":"27 King's College Circle","city":"Toronto","province":"ON","country":"Canada","postal":"M5S 1A1"},"lat":43.6607633248092,"lng":-79.395939268856},"010A":{"id":"010A","code":"CH","name":"Convocation Hall","address":{"street":"31 King's College Circle","city":"Toronto","province":"ON","country":"Canada","postal":"M5S 1A1"},"lat":43.66077496731175,"lng":-79.3953880749035},"011":{"id":"011","code":"NL","name":"C. David Naylor Building (Formerly Tanz Building)","address":{"street":"6 Queen's Park Crescent West","city":"Toronto","province":"ON","country":"Canada","postal":"M5S 3H2"},"lat":43.660430057195335,"lng":-79.3917597166586},"012A":{"id":"012A","code":"MU","name":"Munk School of Global Affairs at Trinity","address":{"street":"1 Devonshire Place","city":"Toronto","province":"ON","country":"Canada","postal":"M5S 3K7"},"lat":43.66529984970937,"lng":-79.3967868469047},"012C":{"id":"012C","code":"MU","name":"Munk School of Global Affairs - Graham Library","address":{"street":"5 Devonshire Place","city":"Toronto","province":"ON","country":"Canada","postal":"M5S 3K7"},"lat":43.665068957024474,"lng":-79.3963523290443},"013":{"id":"013","code":"WT","name":"Whitney Hall","address":{"street":"85 St. George Street","city":"Toronto","province":"ON","country":"Canada","postal":"M5S 2E5"},"lat":43.663755374135995,"lng":-79.3979388556766},"014":{"id":"014","code":"FE","name":"Bloor Street West-371","address":{"street":"371 Bloor Street West","city":"Toronto","province":"ON","country":"Canada","postal":"M5S 2R7"},"lat":43.66668130671138,"lng":-79.4022290489959},"016":{"id":"016","code":"BI","name":"Banting Institute","address":{"street":"100 College Street","city":"Toronto","province":"ON","country":"Canada","postal":"M5G 1L5"},"lat":43.660492150860854,"lng":-79.388589345603},"017":{"id":"017","code":"PL","name":"Queen's Park-90","address":{"street":"90 Queen's Park","city":"Toronto","province":"ON","country":"Canada","postal":""},"lat":0,"lng":0},"018":{"id":"018","code":"ST","name":"Central Steam Plant","address":{"street":"17 Russell Street","city":"Toronto","province":"ON","country":"Canada","postal":"M5S 2S2"},"lat":43.66002693188444,"lng":-79.397744395523},"019":{"id":"019","code":"DR","name":"J. Robert S. Prichard Alumni House","address":{"street":"21 King's College Circle","city":"Toronto","province":"ON","country":"Canada","postal":"M5S 3J3"},"lat":43.66208716010893,"lng":-79.3966601125288},"020":{"id":"020","code":"RS","name":"Rosebrugh Building","address":{"street":"164 College Street","city":"Toronto","province":"ON","country":"Canada","postal":"M5S 3G9"},"lat":43.660054583141815,"lng":-79.3932268849897},"021":{"id":"021","code":"EA","name":"Engineering Annex","address":{"street":"11 King's College Road","city":"Toronto","province":"ON","country":"Canada","postal":"M5S 1A4"},"lat":43.659597122598235,"lng":-79.3954148969936},"022":{"id":"022","code":"MC","name":"Mechanical Engineering Building","address":{"street":"5 King's College Road","city":"Toronto","province":"ON","country":"Canada","postal":"M5S 3G8"},"lat":43.65993427563183,"lng":-79.3940288654852},"023":{"id":"023","code":"UP","name":"University College Union","address":{"street":"79 St. George Street","city":"Toronto","province":"ON","country":"Canada","postal":"M5S 2E5"},"lat":43.66338477174165,"lng":-79.39746678689},"024":{"id":"024","code":"HA","name":"Haultain Building","address":{"street":"170 College Street (rear of)","city":"Toronto","province":"ON","country":"Canada","postal":"M5S 3E3"},"lat":43.65994252264234,"lng":-79.3936352513122},"025":{"id":"025","code":"FG","name":"FitzGerald Building","address":{"street":"150 College Street","city":"Toronto","province":"ON","country":"Canada","postal":"M5S 1A8"},"lat":43.66006234490184,"lng":-79.3924503854799},"026":{"id":"026","code":"CU","name":"Cumberland House","address":{"street":"33 St. George Street","city":"Toronto","province":"ON","country":"Canada","postal":"M5S 2E3"},"lat":43.65946129055228,"lng":-79.3958963535118},"027":{"id":"027","code":"PG","name":"St. George Street-45","address":{"street":"45 St. George Street","city":"Toronto","province":"ON","country":"Canada","postal":"M5S 2E5"},"lat":43.66036359750589,"lng":-79.3965467891979},"028":{"id":"028","code":"AR","name":"Architecture Building","address":{"street":"230 College Street","city":"Toronto","province":"ON","country":"Canada","postal":"M5T 1R2"},"lat":43.658682190974226,"lng":-79.397913374691},"029":{"id":"029","code":"SD","name":"Sir Daniel Wilson Residence","address":{"street":"73 St. George Street","city":"Toronto","province":"ON","country":"Canada","postal":"M5S 2E5"},"lat":43.662638709096576,"lng":-79.397531159906},"030A":{"id":"030A","code":"VA","name":"Varsity Centre","address":{"street":"299 Bloor Street West","city":"Toronto","province":"ON","country":"Canada","postal":""},"lat":43.66724,"lng":-79.3963},"032":{"id":"032","code":"WE","name":"Wetmore Hall-New College","address":{"street":"300 Huron Street","city":"Toronto","province":"ON","country":"Canada","postal":"M5S 2Z3"},"lat":43.66223753899295,"lng":-79.4005908898401},"032A":{"id":"032A","code":"WI","name":"Wilson Hall-New College","address":{"street":"40 Willcocks Street","city":"Toronto","province":"ON","country":"Canada","postal":"M5S 1C6"},"lat":43.66176311667377,"lng":-79.4003508321333},"033":{"id":"033","code":"SS","name":"Sidney Smith Hall","address":{"street":"100 St. George Street","city":"Toronto","province":"ON","country":"Canada","postal":"M5S 3G3"},"lat":43.66237579019846,"lng":-79.3986617110061},"034":{"id":"034","code":"MA","name":"Massey College","address":{"street":"4 Devonshire Place","city":"Toronto","province":"ON","country":"Canada","postal":"M5S 2E1"},"lat":43.66483612312723,"lng":-79.3972750089454},"036":{"id":"036","code":"AB","name":"Astronomy & Astrophysics Building","address":{"street":"50 St. George Street","city":"Toronto","province":"ON","country":"Canada","postal":"M5S 3H4"},"lat":43.66066,"lng":-79.39734},"038":{"id":"038","code":"WW","name":"Woodsworth College","address":{"street":"119 St. George Street","city":"Toronto","province":"ON","country":"Canada","postal":"M5S 1A9"},"lat":43.66639900309655,"lng":-79.3987877748298},"039":{"id":"039","code":"SG","name":"St. George Street-49","address":{"street":"49 St. George Street","city":"Toronto","province":"ON","country":"Canada","postal":"M5S 2E5"},"lat":43.66065660181324,"lng":-79.3965950689602},"040":{"id":"040","code":"LW","name":"Faculty of Law","address":{"street":"78 Queen's Park","city":"Toronto","province":"ON","country":"Canada","postal":"M5S 2C5"},"lat":43.66602987210845,"lng":-79.394044958739},"041":{"id":"041","code":"VP","name":"Varsity Pavilion","address":{"street":"299 Bloor Street West","city":"Toronto","province":"ON","country":"Canada","postal":""},"lat":43.666433,"lng":-79.39643},"042":{"id":"042","code":"GO","name":"Goldring Centre for High Performance Sport","address":{"street":"100 Devonshire Place","city":"Toronto","province":"ON","country":"Canada","postal":""},"lat":43.6672272,"lng":-79.3984},"043":{"id":"043","code":"GS","name":"School of Graduate Studies","address":{"street":"65 St. George Street","city":"Toronto","province":"ON","country":"Canada","postal":"M5S 2E5"},"lat":43.66199935813239,"lng":-79.3971140764045},"047":{"id":"047","code":"CG","name":"Canadiana Gallery","address":{"street":"14 Queen's Park Crescent West","city":"Toronto","province":"ON","country":"Canada","postal":"M5S 3K9"},"lat":43.66191543670893,"lng":-79.392918430953},"050":{"id":"050","code":"FH","name":"Falconer Hall","address":{"street":"84 Queen's Park","city":"Toronto","province":"ON","country":"Canada","postal":"M5S 2C5"},"lat":43.666688582539344,"lng":-79.3939604691553},"051":{"id":"051","code":"EJ","name":"Edward Johnson Building","address":{"street":"80 Queen's Park","city":"Toronto","province":"ON","country":"Canada","postal":"M5S 2C5"},"lat":43.6665508262648,"lng":-79.3945760361242},"052":{"id":"052","code":"CB","name":"Best Institute","address":{"street":"112 College St","city":"Toronto","province":"ON","country":"Canada","postal":"M5G 1L6"},"lat":43.66036990387816,"lng":-79.3892867199468},"053":{"id":"053","code":"WR","name":"Leighton Goldie McCarthy House (Child Study)","address":{"street":"45 Walmer Road","city":"Toronto","province":"ON","country":"Canada","postal":"M5R 2X2"},"lat":43.66967,"lng":-79.40607},"054":{"id":"054","code":"SP","name":"Spadina Crescent-1 (Under Renovation)","address":{"street":"1 Spadina Crescent","city":"Toronto","province":"ON","country":"Canada","postal":"M5S 2J5"},"lat":43.65946371613771,"lng":-79.40061771193},"056":{"id":"056","code":"GU","name":"Graduate Students' Union","address":{"street":"16 Bancroft Avenue","city":"Toronto","province":"ON","country":"Canada","postal":"M5S 1C1"},"lat":43.660826388406655,"lng":-79.4002536020565},"057":{"id":"057","code":"BF","name":"Bancroft Building","address":{"street":"4 Bancroft Avenue","city":"Toronto","province":"ON","country":"Canada","postal":"M5S 1C1"},"lat":43.66093068564293,"lng":-79.3997245363283},"061":{"id":"061","code":"SB","name":"Borden Building South","address":{"street":"487 Spadina Crescent","city":"Toronto","province":"ON","country":"Canada","postal":"M5S 2T4"},"lat":43.660071076909205,"lng":-79.399673574357},"061A":{"id":"061A","code":"NB","name":"Borden Building North","address":{"street":"563 Spadina Crescent","city":"Toronto","province":"ON","country":"Canada","postal":"M5S 2J7"},"lat":43.66041065293638,"lng":-79.3999967805433},"062":{"id":"062","code":"ES","name":"Earth Sciences Centre","address":{"street":"33 Willcocks Street","city":"Toronto","province":"ON","country":"Canada","postal":"M5S 3B3"},"lat":43.661099501245644,"lng":-79.399303429513},"064":{"id":"064","code":"GD","name":"Graduate House","address":{"street":"60 Harbord Street","city":"Toronto","province":"ON","country":"Canada","postal":"M5S 1A1"},"lat":43.663376525335316,"lng":-79.4016436568784},"065":{"id":"065","code":"DN","name":"Dentistry Building","address":{"street":"124 Edward Street","city":"Toronto","province":"ON","country":"Canada","postal":"M5G 1G6"},"lat":43.65627448600932,"lng":-79.3871449760484},"066":{"id":"066","code":"XG","name":"Spadina Avenue-665","address":{"street":"665 Spadina Avenue","city":"","province":"ON","country":"Canada","postal":""},"lat":43.66446,"lng":-79.40223},"067":{"id":"067","code":"HU","name":"Huron Street-215","address":{"street":"215 Huron Street","city":"Toronto","province":"ON","country":"Canada","postal":"M5S 1A2"},"lat":43.659297806582664,"lng":-79.3982372514295},"068":{"id":"068","code":"BN","name":"Clara Benson Building","address":{"street":"320 Huron Street","city":"Toronto","province":"ON","country":"Canada","postal":"M5S 3J7"},"lat":43.662942859315585,"lng":-79.400203310637},"068A":{"id":"068A","code":"WS","name":"Warren Stevens Building","address":{"street":"55 Harbord Street","city":"Toronto","province":"ON","country":"Canada","postal":"M5S 2W6"},"lat":43.66278666117544,"lng":-79.401021384387},"070":{"id":"070","code":"GB","name":"Galbraith Building","address":{"street":"35 St. George Street","city":"Toronto","province":"ON","country":"Canada","postal":"M5S 1A4"},"lat":43.65988139854955,"lng":-79.3961860320854},"071":{"id":"071","code":"OG","name":"College Street-92","address":{"street":"92 College Street","city":"Toronto","province":"ON","country":"Canada","postal":"M5S 1L5"},"lat":43.660610516749685,"lng":-79.3881092301893},"072":{"id":"072","code":"RW","name":"Ramsay Wright Laboratories","address":{"street":"25 Harbord Street","city":"Toronto","province":"ON","country":"Canada","postal":"M5S 3G5"},"lat":43.66311506487241,"lng":-79.3989849171924},"073":{"id":"073","code":"LM","name":"Lash Miller Chemical Laboratories","address":{"street":"80 St. George Street","city":"Toronto","province":"ON","country":"Canada","postal":"M5S 3H6"},"lat":43.661397838050824,"lng":-79.3978127918529},"075":{"id":"075","code":"FC","name":"Faculty Club","address":{"street":"41 Willcocks Street","city":"Toronto","province":"ON","country":"Canada","postal":"M5S 1C7"},"lat":43.66115286242385,"lng":-79.4004889658975},"077":{"id":"077","code":"SC","name":"Sussex Court","address":{"street":"21 Sussex Avenue","city":"Toronto","province":"ON","country":"Canada","postal":"M5S 1J6"},"lat":43.66483612316502,"lng":-79.400894650011},"078":{"id":"078","code":"MP","name":"McLennan Physical Laboratories","address":{"street":"255 Huron Street","city":"Toronto","province":"ON","country":"Canada","postal":"M5S 1A7"},"lat":43.660710933566016,"lng":-79.3982714495945},"079":{"id":"079","code":"AP","name":"Anthropology Building","address":{"street":"19 Russell Street","city":"Toronto","province":"ON","country":"Canada","postal":"M5S 2S2"},"lat":43.65987169638199,"lng":-79.398449816494},"080":{"id":"080","code":"BA","name":"Bahen Centre for Information Technology","address":{"street":"40 St. George Street","city":"Toronto","province":"ON","country":"Canada","postal":"M5S 2E4"},"lat":43.65966794914353,"lng":-79.397374250679},"082":{"id":"082","code":"GA","name":"Gage Building","address":{"street":"223 College Street","city":"Toronto","province":"ON","country":"Canada","postal":"M5T 1R4"},"lat":43.65819609756056,"lng":-79.3970939598369},"083":{"id":"083","code":"RM","name":"McCaul Street-254/256","address":{"street":"254-256 McCaul Street","city":"Toronto","province":"ON","country":"Canada","postal":"M5T 1W5"},"lat":43.65857109807999,"lng":-79.3936037353563},"085":{"id":"085","code":"CX","name":"College Street - 245","address":{"street":"245 College Street","city":"Toronto","province":"ON","country":"Canada","postal":""},"lat":0,"lng":0},"088":{"id":"088","code":"WA","name":"St. George Street123","address":{"street":"123 St. George Street","city":"Toronto","province":"ON","country":"Canada","postal":"M5S 2E8"},"lat":43.666900551888155,"lng":-79.3992115638542},"089":{"id":"089","code":"MK","name":"Munk School of Global Affairs at the Observatory","address":{"street":"315 Bloor Street West","city":"Toronto","province":"ON","country":"Canada","postal":"M5S 1A3"},"lat":43.66747000352004,"lng":-79.398519553928},"090":{"id":"090","code":"ZC","name":"College Street-88","address":{"street":"88 College Street","city":"Toronto","province":"ON","country":"Canada","postal":"M5G 1L4"},"lat":43.66077157160064,"lng":-79.3878436914968},"091":{"id":"091","code":"GM","name":"Luella Massey Studio Theatre","address":{"street":"4 Glen Morris Street","city":"Toronto","province":"ON","country":"Canada","postal":"M5S 1J1"},"lat":43.664349109423604,"lng":-79.4010730169105},"093":{"id":"093","code":"EL","name":"Electrometallurgy Lab","address":{"street":"11 King's College Road (rear)","city":"Toronto","province":"ON","country":"Canada","postal":"M5S 3J2"},"lat":43.65946905241543,"lng":-79.39529687979},"094":{"id":"094","code":"BK","name":"Back Campus Fields","address":{"street":"20 Tower Road","city":"Toronto","province":"ON","country":"Canada","postal":""},"lat":0,"lng":0},"097":{"id":"097","code":"ME","name":"Queen's Park Crescent East-39","address":{"street":"39 Queen's Park Crescent East","city":"Toronto","province":"ON","country":"Canada","postal":"M5S 2C3"},"lat":43.664242392753735,"lng":-79.3904112360763},"097A":{"id":"097A","code":"ML","name":"Queen's Park Crsc. E.-39A","address":{"street":"39A Queen's Park Crsc. E","city":"Toronto","province":"ON","country":"Canada","postal":"M5S 2C3"},"lat":43.66431224369719,"lng":-79.3898063979435},"098B":{"id":"098B","code":"JP","name":"Wellesley Street West -90","address":{"street":"90 Wellesley Street West","city":"Toronto","province":"ON","country":"Canada","postal":"M5S 1C5"},"lat":43.66403817512182,"lng":-79.3897279433298},"101":{"id":"101","code":"MO","name":"Morrison Hall","address":{"street":"75 St. George Street","city":"Toronto","province":"ON","country":"Canada","postal":"M5S 2E5"},"lat":43.66309954213775,"lng":-79.3976076028633},"102":{"id":"102","code":"TR","name":"Soldiers' Tower","address":{"street":"7 Hart House Circle","city":"Toronto","province":"ON","country":"Canada","postal":"M5S 3H3"},"lat":43.66350992309996,"lng":-79.3952164135265},"103":{"id":"103","code":"CS","name":"School of Continuing Studies","address":{"street":"158 St. George Street","city":"Toronto","province":"ON","country":"Canada","postal":"M5S 2V8"},"lat":43.666704589426224,"lng":-79.3999210081386},"104":{"id":"104","code":"GE","name":"Max Gluskin House","address":{"street":"150 St. George Street","city":"Toronto","province":"ON","country":"Canada","postal":"M5S 3G7"},"lat":43.66615453296803,"lng":-79.3996970436859},"105":{"id":"105","code":"FI","name":"Fields Inst for Research in Math Science","address":{"street":"222 College Street","city":"Toronto","province":"ON","country":"Canada","postal":"M5T 3J1"},"lat":43.65879376874734,"lng":-79.3974480114269},"110":{"id":"110","code":"IR","name":"St. George Street-121","address":{"street":"121 St. George Street","city":"Toronto","province":"ON","country":"Canada","postal":"M5S 2E8"},"lat":43.66668712738649,"lng":-79.3991015932846},"111":{"id":"111","code":"SK","name":"Factor-Inwentash Faculty of Social Work","address":{"street":"246 Bloor Street West","city":"Toronto","province":"ON","country":"Canada","postal":"M5S 1V4"},"lat":43.66829361310306,"lng":-79.3977323255825},"120":{"id":"120","code":"SO","name":"Louis B. Stewart Observatory (UTSU)","address":{"street":"12 Hart House Circle","city":"Toronto","province":"ON","country":"Canada","postal":"M5S 3J9"},"lat":43.66314611035052,"lng":-79.3946799717235},"123":{"id":"123","code":"OI","name":"Ontario Institute for Studies in Education","address":{"street":"252 Bloor Street West","city":"Toronto","province":"ON","country":"Canada","postal":"M5S 1V6"},"lat":43.668277121589846,"lng":-79.3984565220165},"125":{"id":"125","code":"IA","name":"Spadina Avenue-703","address":{"street":"703 Spadina Avenue","city":"Toronto","province":"ON","country":"Canada","postal":"M5S 2J4"},"lat":43.66571797663791,"lng":-79.4026488147068},"127":{"id":"127","code":"AD","name":"Enrolment Services","address":{"street":"172 St. George Street","city":"Toronto","province":"ON","country":"Canada","postal":"M5R 0A3"},"lat":43.668115116811045,"lng":-79.4004587910461},"128":{"id":"128","code":"JH","name":"Jackman Humanities Building","address":{"street":"170 St. George Street","city":"Toronto","province":"ON","country":"Canada","postal":"M5R 2M8"},"lat":43.66766208308606,"lng":-79.4003233394909},"129":{"id":"129","code":"ER","name":"Early Learning Centre","address":{"street":"7 Glen Morris Street","city":"Toronto","province":"ON","country":"Canada","postal":"M5S 1H9"},"lat":43.663909629488785,"lng":-79.4011467776584},"130":{"id":"130","code":"WO","name":"Woodsworth College Residence","address":{"street":"321 Bloor St. West","city":"Toronto","province":"ON","country":"Canada","postal":"M5S 1S5"},"lat":43.6673312789927,"lng":-79.399330922155},"131":{"id":"131","code":"NR","name":"New College III","address":{"street":"45 Willcocks Street","city":"Toronto","province":"ON","country":"Canada","postal":"M5S 1C7"},"lat":43.661006361670275,"lng":-79.4007759622621},"132":{"id":"132","code":"IN","name":"Innis College","address":{"street":"2 Sussex Avenue","city":"Toronto","province":"ON","country":"Canada","postal":"M5S 1J5"},"lat":43.66557148699452,"lng":-79.3994838080692},"133":{"id":"133","code":"IS","name":"Innis College Student Residence","address":{"street":"111 St. George Street","city":"Toronto","province":"ON","country":"Canada","postal":"M5S 2E8"},"lat":43.66592073316277,"lng":-79.39877302268},"134":{"id":"134","code":"RT","name":"Rotman School of Management","address":{"street":"105 St. George Street","city":"Toronto","province":"ON","country":"Canada","postal":"M5S 3E6"},"lat":43.6651853735736,"lng":-79.398286201744},"138":{"id":"138","code":"CA","name":"Huron Street-370","address":{"street":"370 Huron Street","city":"Toronto","province":"ON","country":"Canada","postal":"M5S 2G4"},"lat":43.664574183994326,"lng":-79.4006867788124},"141":{"id":"141","code":"MF","name":"Devonshire Place-100 (Demolished Feb, 2012)","address":{"street":"100 Devonshire Place","city":"Toronto","province":"ON","country":"Canada","postal":"M5S 2C9"},"lat":0,"lng":0},"142":{"id":"142","code":"SA","name":"Spadina Ave-713","address":{"street":"713 Spadina Avenue","city":"Toronto","province":"ON","country":"Canada","postal":"M5S 2J4"},"lat":43.66600901454478,"lng":-79.4028446159649},"143":{"id":"143","code":"KS","name":"Koffler Student Services Centre","address":{"street":"214 College Street","city":"Toronto","province":"ON","country":"Canada","postal":"M5T 2Z9"},"lat":43.65916925066043,"lng":-79.3968860886383},"145":{"id":"145","code":"KP","name":"Koffler House","address":{"street":"569 Spadina Crescent","city":"Toronto","province":"ON","country":"Canada","postal":"M5S 2J7"},"lat":43.660608576363494,"lng":-79.4005882076311},"146":{"id":"146","code":"SU","name":"Sussex Avenue-40","address":{"street":"40 Sussex Avenue","city":"Toronto","province":"ON","country":"Canada","postal":"M5S 1J7"},"lat":43.665012688924,"lng":-79.4018119654941},"151":{"id":"151","code":"LG","name":"Fasken Martineau Building","address":{"street":"655 Spadina Avenue","city":"Toronto","province":"ON","country":"Canada","postal":"M5S 2H9"},"lat":43.66406097393544,"lng":-79.4020345888424},"152":{"id":"152","code":"RU","name":"Rehabilitation Sciences Building","address":{"street":"500 University Avenue","city":"Toronto","province":"ON","country":"Canada","postal":"M5G 1V7"},"lat":43.65545944429152,"lng":-79.3891660205412},"153":{"id":"153","code":"CD","name":"Spadina Road-56","address":{"street":"56 Spadina Road","city":"Toronto","province":"ON","country":"Canada","postal":""},"lat":43.66967,"lng":-79.40534},"154":{"id":"154","code":"HS","name":"Health Sciences Building","address":{"street":"155 College Street","city":"Toronto","province":"ON","country":"Canada","postal":"M5T 1P8"},"lat":43.659039724201534,"lng":-79.3928835622358},"155":{"id":"155","code":"EX","name":"Exam Centre","address":{"street":"255 McCaul Street","city":"Toronto","province":"ON","country":"Canada","postal":"M5T 1W7"},"lat":43.658476013981854,"lng":-79.3928580812502},"156":{"id":"156","code":"OA","name":"Old Admin Bldg (Board of Ed)","address":{"street":"263 McCaul Street","city":"Toronto","province":"ON","country":"Canada","postal":"M5T 1W7"},"lat":43.65880832236425,"lng":-79.392504700212},"158":{"id":"158","code":"CN","name":"Chestnut Residence and Conference Centre","address":{"street":"89 Chestnut Street","city":"Toronto","province":"ON","country":"Canada","postal":"M5G 1R1"},"lat":43.654308663892664,"lng":-79.3853586248445},"160":{"id":"160","code":"DC","name":"Terrence Donnelly Ctr for Cellular & Biomolecular Res","address":{"street":"160 College Street","city":"Toronto","province":"ON","country":"Canada","postal":"M5S 3E1"},"lat":43.66015645609399,"lng":-79.3928768567133},"161":{"id":"161","code":"PB","name":"Leslie L. Dan Pharmacy Building","address":{"street":"144 College Street","city":"Toronto","province":"ON","country":"Canada","postal":"M5S 3M2"},"lat":43.65995853126025,"lng":-79.391703390269},"171":{"id":"171","code":"TT","name":"Spadina Ave-455","address":{"street":"455 Spadina Avenue","city":"Toronto","province":"ON","country":"Canada","postal":"M5S 2G8"},"lat":43.65820628517793,"lng":-79.3997030786562},"172":{"id":"172","code":"MM","name":"Macdonald-Mowat House","address":{"street":"63 St. George Street","city":"Toronto","province":"ON","country":"Canada","postal":"M5S 2Z9"},"lat":43.66177136333075,"lng":-79.3970510444927},"179":{"id":"179","code":"CZ","name":"College Street-229","address":{"street":"229 College Street","city":"Toronto","province":"ON","country":"Canada","postal":"M5T 1R4"},"lat":43.65816,"lng":-79.39745},"189":{"id":"189","code":"FA","name":"Spadina Avenue-720","address":{"street":"720 Spadina Avenue","city":"Toronto","province":"ON","country":"Canada","postal":"M5S 2T9"},"lat":43.665399288509725,"lng":-79.403629832654},"192":{"id":"192","code":"EP","name":"Stewart Building","address":{"street":"149 College Street","city":"Toronto","province":"ON","country":"Canada","postal":"M5T 1P5"},"lat":43.65923474135822,"lng":-79.3920654884863},"193":{"id":"193","code":"ED","name":"Edward Street-123","address":{"street":"123 Edward Street","city":"Toronto","province":"ON","country":"Canada","postal":""},"lat":0,"lng":0},"194":{"id":"194","code":"KT","name":"TWH-Krembil Discovery Tower","address":{"street":"399 Bathurst Street","city":"Toronto","province":"ON","country":"Canada","postal":""},"lat":0,"lng":0},"401":{"id":"401","code":"LC","name":"Loretto College","address":{"street":"70 St. Mary Street","city":"Toronto","province":"ON","country":"Canada","postal":"M5S 1J3"},"lat":43.66736183708266,"lng":-79.390100770382},"405":{"id":"405","code":"EH","name":"Elmsley Hall","address":{"street":"81 St. Mary Street","city":"Toronto","province":"ON","country":"Canada","postal":"M5S 1J4"},"lat":43.66689133569867,"lng":-79.3902697495508},"407":{"id":"407","code":"AH","name":"Muzzo Family Alumni Hall","address":{"street":"121 St. Joseph Street","city":"Toronto","province":"ON","country":"Canada","postal":"M5S 1J4"},"lat":43.66479198160499,"lng":-79.3901463679361},"411":{"id":"411","code":"BR","name":"Brennan Hall","address":{"street":"81 St. Mary Street","city":"Toronto","province":"ON","country":"Canada","postal":"M5S 1J4"},"lat":43.666364563794566,"lng":-79.389863394885},"413":{"id":"413","code":"BS","name":"St. Basil's Church","address":{"street":"50 St. Joseph Street","city":"Toronto","province":"ON","country":"Canada","postal":"M5S IJ4"},"lat":43.66632284869429,"lng":-79.3891700438547},"415":{"id":"415","code":"OH","name":"Odette (Louis) Hall","address":{"street":"50 St. Joseph Street","city":"Toronto","province":"ON","country":"Canada","postal":"M5S 1J4"},"lat":43.66635389249167,"lng":-79.3889071873712},"416":{"id":"416","code":"WN","name":"Windle House","address":{"street":"5 Elmsley Place","city":"Toronto","province":"ON","country":"Canada","postal":""},"lat":43.66601289505634,"lng":-79.3894939205932},"417":{"id":"417","code":"PH","name":"Phelan House","address":{"street":"3 Elmsley Place","city":"Toronto","province":"ON","country":"Canada","postal":""},"lat":43.66579946740982,"lng":-79.3894416175174},"418":{"id":"418","code":"PI","name":"Pontifical Institute of Mediaeval Studies","address":{"street":"59 Queen's Park Crescent East","city":"Toronto","province":"ON","country":"Canada","postal":"M5S 2C4"},"lat":43.66568790265635,"lng":-79.3910388729858},"419":{"id":"419","code":"MH","name":"More House","address":{"street":"59 Queen's Park Crescent East","city":"Toronto","province":"ON","country":"Canada","postal":"M5S 2C4"},"lat":43.66560059096537,"lng":-79.3908631882953},"420":{"id":"420","code":"FS","name":"Fisher House","address":{"street":"59 Queen's Park Crescent East","city":"Toronto","province":"ON","country":"Canada","postal":"M5S 2C4"},"lat":43.665461862128474,"lng":-79.3908055208015},"421":{"id":"421","code":"TF","name":"Teefy Hall","address":{"street":"57 Queen's Park Crescent East","city":"Toronto","province":"ON","country":"Canada","postal":"M5S 2C4"},"lat":43.665324103106094,"lng":-79.3908739171314},"422":{"id":"422","code":"GH","name":"Gilson House","address":{"street":"8 Elmsley Place","city":"Toronto","province":"ON","country":"Canada","postal":""},"lat":43.66573543896801,"lng":-79.3900424323368},"423":{"id":"423","code":"MN","name":"Maritain House","address":{"street":"6 Elmsley Place","city":"Toronto","province":"ON","country":"Canada","postal":""},"lat":43.665642306566845,"lng":-79.39001963356},"425":{"id":"425","code":"SV","name":"Sullivan House","address":{"street":"96 St. Joseph Street","city":"Toronto","province":"ON","country":"Canada","postal":""},"lat":43.665404624263296,"lng":-79.3899807415294},"426":{"id":"426","code":"CR","name":"Carr Hall","address":{"street":"100 St. Joseph Street","city":"Toronto","province":"ON","country":"Canada","postal":"M5S 1J4"},"lat":43.66522854467064,"lng":-79.3905057839441},"427":{"id":"427","code":"MZ","name":"McCorkell House","address":{"street":"2 Elmsley Place","city":"Toronto","province":"ON","country":"Canada","postal":""},"lat":43.665433728269406,"lng":-79.3898667476463},"428":{"id":"428","code":"BH","name":"Founders House","address":{"street":"1 Elmsley Place","city":"Toronto","province":"ON","country":"Canada","postal":""},"lat":43.66550988363074,"lng":-79.3893537751722},"429":{"id":"429","code":"KL","name":"J. M. Kelly Library","address":{"street":"113 St. Joseph Street","city":"Toronto","province":"ON","country":"Canada","postal":"M5S 1J4"},"lat":43.6648453394831,"lng":-79.3895281187582},"430":{"id":"430","code":"CF","name":"Cardinal Flahiff Building","address":{"street":"95 St. Joseph Street","city":"Toronto","province":"ON","country":"Canada","postal":"M5S 2R9"},"lat":43.66519653003966,"lng":-79.3886885873365},"433":{"id":"433","code":"XQ","name":"Queen's Park Crescent East-43","address":{"street":"43 Queen's Park Crescent East","city":"Toronto","province":"ON","country":"Canada","postal":"M5S 2C3"},"lat":43.66455332578703,"lng":-79.3905889324236},"434":{"id":"434","code":"TH","name":"Toronto School of Theology","address":{"street":"47 Queen's Park Crescent East","city":"Toronto","province":"ON","country":"Canada","postal":"M5S 2C3"},"lat":43.66476093699955,"lng":-79.3906519643354},"435":{"id":"435","code":"SR","name":"Sam Sorbara Hall Student Residence","address":{"street":"70 St. Joseph Street","city":"Toronto","province":"ON","country":"Canada","postal":""},"lat":43.66575532654301,"lng":-79.3890426389265},"478":{"id":"478","code":"RG","name":"Regis College","address":{"street":"100 Wellesley Street West","city":"Toronto","province":"ON","country":"Canada","postal":"M5S 1C5"},"lat":43.66396347318962,"lng":-79.390280478386},"501":{"id":"501","code":"VC","name":"Victoria College","address":{"street":"91 Charles Street West","city":"Toronto","province":"ON","country":"Canada","postal":"M5S 1K7"},"lat":43.666898126473924,"lng":-79.3920051387834},"502":{"id":"502","code":"EM","name":"Emmanuel College","address":{"street":"75 Queen's Park","city":"Toronto","province":"ON","country":"Canada","postal":"M5S 1K7"},"lat":43.6667293272608,"lng":-79.3928218714285},"503":{"id":"503","code":"BC","name":"Birge-Carnegie Library","address":{"street":"75a Queen's Park","city":"Toronto","province":"ON","country":"Canada","postal":"M5S 1K7"},"lat":43.667112520421476,"lng":-79.3929600051927},"504":{"id":"504","code":"BW","name":"Burwash Hall","address":{"street":"89 Charles Street West","city":"Toronto","province":"ON","country":"Canada","postal":"M5S 1K6"},"lat":43.667438475209295,"lng":-79.391794585375},"505":{"id":"505","code":"LB","name":"Burwash Residence (Lower Houses)","address":{"street":"89 Charles Street West","city":"Toronto","province":"ON","country":"Canada","postal":"M5S 1K6"},"lat":43.66638493638289,"lng":-79.390846424489},"505A":{"id":"505A","code":"UB","name":"Burwash Residence (Upper Houses)","address":{"street":"89 Charles Street West","city":"Toronto","province":"ON","country":"Canada","postal":"M5S 1K6"},"lat":43.666917528661344,"lng":-79.3910623423147},"506":{"id":"506","code":"AN","name":"Annesley Hall","address":{"street":"95 Queen's Park","city":"Toronto","province":"ON","country":"Canada","postal":"M5S 2C7"},"lat":43.667773159088526,"lng":-79.3929559818792},"507":{"id":"507","code":"GC","name":"Goldring Student Centre","address":{"street":"150 Charles Street West","city":"Toronto","province":"ON","country":"Canada","postal":"M5S 1K9"},"lat":43.66764413624914,"lng":-79.3925992480802},"508":{"id":"508","code":"MG","name":"Margaret Addison Hall","address":{"street":"140 Charles Street West","city":"Toronto","province":"ON","country":"Canada","postal":"M5S 1K9"},"lat":43.668260145051306,"lng":-79.3925187818098},"509":{"id":"509","code":"BT","name":"Isabel Bader Theatre","address":{"street":"93 Charles St. West","city":"Toronto","province":"ON","country":"Canada","postal":"M5S 1K9"},"lat":43.66723281346622,"lng":-79.3924530676889},"513":{"id":"513","code":"SN","name":"Stephenson House","address":{"street":"63 Charles Street West","city":"Toronto","province":"ON","country":"Canada","postal":"M5S 1K5"},"lat":43.66783184987208,"lng":-79.3899042985725},"514":{"id":"514","code":"PR","name":"E.J. Pratt Library","address":{"street":"71 Queen's Park Crescent East","city":"Toronto","province":"ON","country":"Canada","postal":"M5S 1K7"},"lat":43.66633740058605,"lng":-79.3913466564703},"515":{"id":"515","code":"NF","name":"Northrop Frye Hall","address":{"street":"73 Queen's Park Crescent East","city":"Toronto","province":"ON","country":"Canada","postal":"M5S 1K7"},"lat":43.66640821920836,"lng":-79.3921821645784},"516":{"id":"516","code":"LH","name":"Charles Street West-65","address":{"street":"65 Charles Street West","city":"Toronto","province":"ON","country":"Canada","postal":"M5S 1K5"},"lat":43.66784,"lng":-79.39},"518":{"id":"518","code":"RJ","name":"Rowell Jackman Hall","address":{"street":"85 Charles Street West","city":"Toronto","province":"ON","country":"Canada","postal":"M5S 1K5"},"lat":43.66742295348751,"lng":-79.3908249668169},"528":{"id":"528","code":"LI","name":"Lillian Massey Building","address":{"street":"125 Queen's Park","city":"Toronto","province":"ON","country":"Canada","postal":"M5S 2C7"},"lat":43.66834648269129,"lng":-79.3936748138952},"575":{"id":"575","code":"KX","name":"Knox College","address":{"street":"59 St. George Street","city":"Toronto","province":"ON","country":"Canada","postal":"M5S 2E6"},"lat":43.661362910842435,"lng":-79.3969598493862},"575A":{"id":"575A","code":"VI","name":"Nona Macdonald Visitors Centre","address":{"street":"25 King's College Circle","city":"Toronto","province":"ON","country":"Canada","postal":"M5S 1A1"},"lat":43.6611882748143,"lng":-79.3962651572513},"600":{"id":"600","code":"TC","name":"Trinity College","address":{"street":"6 Hoskin Avenue","city":"Toronto","province":"ON","country":"Canada","postal":"M5S 1H8"},"lat":43.66513638156263,"lng":-79.3955604068327},"602":{"id":"602","code":"LA","name":"Gerald Larkin Building","address":{"street":"15 Devonshire Place","city":"Toronto","province":"ON","country":"Canada","postal":"M5S 1H8"},"lat":43.66566898509376,"lng":-79.3969108990717},"603":{"id":"603","code":"GI","name":"George Ignatieff Theatre","address":{"street":"15 Devonshire Place","city":"Toronto","province":"ON","country":"Canada","postal":"M5S 1H8"},"lat":43.66581984007549,"lng":-79.3971033475685},"608":{"id":"608","code":"HI","name":"St. Hilda's College","address":{"street":"44 Devonshire Place","city":"Toronto","province":"ON","country":"Canada","postal":"M5S 2E2"},"lat":43.66572961814705,"lng":-79.3978154740619},"675":{"id":"675","code":"WY","name":"Wycliffe College","address":{"street":"5 Hoskin Avenue","city":"Toronto","province":"ON","country":"Canada","postal":"M5S 1H7"},"lat":43.66453149750189,"lng":-79.3950675509262},"790":{"id":"790","code":"XX790","name":"Charles St. West-30","address":{"street":"30 Charles St. West","city":"Toronto","province":"ON","country":"Canada","postal":"M4Y 1R5"},"lat":43.66899,"lng":-79.38648},"791":{"id":"791","code":"XX791","name":"Charles St. West-35","address":{"street":"35 Charles St. West","city":"Toronto","province":"ON","country":"Canada","postal":"M4Y 1R6"},"lat":43.6681,"lng":-79.38765}}
